stop_id,stop_code,stop_name,stop_desc,stop_lat,stop_lon,zone_id,stop_url,location_type,platform_code,parent_station
1_01,(降車専用),青森駅 (降車専用),,40.8280809999999,140.734870428571,1_01,,0,,
1_02,②のりば,青森駅 ②のりば,,40.8281309999999,140.734587285714,1_02,,0,2,
1_03,③のりば,青森駅 ③のりば,,40.8280269999999,140.734522857143,1_03,,0,3,
1_04,④のりば,青森駅 ④のりば,,40.8279239999999,140.734467714286,1_04,,0,4,
1_06,⑥のりば,青森駅 ⑥のりば,,40.82825,140.73485,1_06,,0,6,
2_02,,古川一丁目,,40.826467,140.736044,2_02,,0,,
3_01,①のりば,古川 ①のりば,,40.824242,140.735627,3_01,,0,1,
3_02,②のりば,古川 ②のりば,,40.824189,140.736048,3_02,,0,2,
3_03,③のりば,古川 ③のりば,,40.824031,140.737057,3_03,,0,3,
3_04,④のりば,古川 ④のりば,,40.823974,140.737457,3_04,,0,4,
3_05,⑤のりば,古川 ⑤のりば,,40.823873,140.738243,3_05,,0,5,
3_06,⑥のりば,古川 ⑥のりば,,40.82447,140.73581,3_06,,0,6,
3_08,⑧のりば,古川 ⑧のりば,,40.824198,140.7376,3_08,,0,8,
3_09,⑨のりば,古川 ⑨のりば,,40.823645,140.736386,3_09,,0,9,
4_01,,県庁前,,40.823389,140.741593,4_01,,0,,
4_02,,県庁前,,40.82387,140.74,4_02,,0,,
5_01,,市役所前,,40.823004,140.746975,5_01,,0,,
5_02,,市役所前,,40.823217,140.74685,5_02,,0,,
6_01,,ＮＴＴ青森支店前,,40.823318,140.751155,6_01,,0,,
6_02,,ＮＴＴ青森支店前,,40.823576,140.751426,6_02,,0,,
6_03,,ＮＴＴ青森支店前,,40.822646,140.75019,6_03,,0,,
6_04,,ＮＴＴ青森支店前,,40.822413,140.750461,6_04,,0,,
6_05,,ＮＴＴ青森支店前,,40.82454,140.750268,6_05,,0,,
7_01,,文化会館前,,40.823635,140.755404,7_01,,0,,
7_02,,文化会館前,,40.823917,140.755509,7_02,,0,,
7_03,,文化会館前,,40.82289,140.754624,7_03,,0,,
7_04,,文化会館前,,40.823232,140.754827,7_04,,0,,
8_01,,堤橋,,40.82404,140.760452,8_01,,0,,
8_02,,堤橋,,40.824326,140.760856,8_02,,0,,
8_03,,堤橋,,40.823522,140.761816,8_03,,0,,
8_04,,堤橋,,40.823634,140.761642,8_04,,0,,
9_01,,栄町一丁目,,40.824509,140.764496,9_01,,0,,
9_02,,栄町一丁目,,40.824854,140.765597,9_02,,0,,
10_01,,栄町二丁目,,40.825114,140.769955,10_01,,0,,
10_02,,栄町二丁目,,40.825339,140.769864,10_02,,0,,
10_03,,栄町二丁目,,40.824679,140.76903,10_03,,0,,
10_04,,栄町二丁目,,40.824774,140.768799,10_04,,0,,
11_01,,合浦町,,40.826042,140.775716,11_01,,0,,
11_02,,合浦町,,40.826014,140.774116,11_02,,0,,
12_01,,合浦公園前,,40.826629,140.778399,12_01,,0,,
12_02,,合浦公園前,,40.827094,140.778626,12_02,,0,,
12_03,,合浦公園前,,40.826138,140.77975,12_03,,0,,
12_04,,合浦公園前,,40.826166,140.779519,12_04,,0,,
13_01,,岡造道一丁目,,40.827639,140.782557,13_01,,0,,
13_02,,岡造道一丁目,,40.827815,140.781414,13_02,,0,,
14_01,,造道,,40.830226,140.785942,14_01,,0,,
14_02,,造道,,40.82981,140.784944,14_02,,0,,
14_03,,造道,,40.828487,140.784949,14_03,,0,,
15_01,,沢田橋,,40.832067,140.789823,15_01,,0,,
15_02,,沢田橋,,40.832142,140.789646,15_02,,0,,
17_01,,新町一丁目,,40.826184,140.738013,17_01,,0,,
17_03,,新町一丁目,,40.82667,140.738979,17_03,,0,,
17_04,,新町一丁目,,40.827143,140.73787,17_04,,0,,
18_01,,県庁通り,,40.826345,140.740559,18_01,,0,,
18_02,,県庁通り,,40.826185,140.742241,18_02,,0,,
19_01,,新町二丁目,,40.825608,140.744699,19_01,,0,,
19_02,,新町二丁目,,40.825754,140.744729,19_02,,0,,
870_01,,北高校,,40.8503553277484,140.688922405243,870_01,,0,,
870_02,,北高校,,40.8502173636817,140.688643455505,870_02,,0,,
27_01,,下六枚橋昇龍の松前,,40.928142,140.665833,27_01,,0,,
27_02,,下六枚橋昇龍の松前,,40.928079,140.665967,27_02,,0,,
28_01,,下安田,,40.804087,140.710748,28_01,,0,,
28_02,,下安田,,40.804541,140.710545,28_02,,0,,
29_01,,古川三丁目,,40.821704,140.736554,29_01,,0,,
30_01,,長島四丁目,,40.820127,140.739472,30_01,,0,,
31_01,,中央大橋,,40.820052,140.744539,31_01,,0,,
31_02,,中央大橋,,40.820158,140.744051,31_02,,0,,
31_03,,中央大橋,,40.819486,140.742959,31_03,,0,,
32_01,,中央二丁目,,40.820082,140.74781,32_01,,0,,
33_01,,橋本三丁目,,40.82049,140.750696,33_01,,0,,
33_02,,橋本三丁目,,40.820299,140.750506,33_02,,0,,
33_03,,橋本三丁目,,40.820557,140.750117,33_03,,0,,
36_01,,聴覚障害者情報センター前,,40.795458,140.767098,36_01,,0,,
36_02,,聴覚障害者情報センター前,,40.794778,140.767441,36_02,,0,,
37_01,,東高校通り,,40.838057,140.803656,37_01,,0,,
37_02,,東高校通り,,40.837974,140.803669,37_02,,0,,
39_01,,サンドーム通り,,40.799996,140.752487,39_01,,0,,
39_02,,サンドーム通り,,40.799807,140.752879,39_02,,0,,
44_01,,浜館五丁目,,40.808839,140.79223,44_01,,0,,
44_02,,浜館五丁目,,40.808459,140.792163,44_02,,0,,
45_01,,南造道,,40.828035,140.789234,45_01,,0,,
45_02,,南造道,,40.828195,140.789958,45_02,,0,,
46_01,,県立中央病院通り,,40.82763,140.794609,46_01,,0,,
46_02,,県立中央病院通り,,40.82798,140.79423,46_02,,0,,
46_03,,県立中央病院通り,,40.826849,140.79551,46_03,,0,,
46_04,,県立中央病院通り,,40.827147,140.795483,46_04,,0,,
47_01,,県立中央病院前,,40.829474,140.792247,47_01,,0,,
47_02,,県立中央病院前,,40.829117,140.792293,47_02,,0,,
47_03,(病院構内),県立中央病院前 (病院構内),,40.829421,140.793408,47_03,,0,,
47_04,(降車専用),県立中央病院前 (降車専用),,40.829429,140.793124,47_04,,0,,
48_01,,八重田,,40.835517,140.79664,48_01,,0,,
48_02,,八重田,,40.835627,140.796627,48_02,,0,,
49_01,,矢作,,40.83741,140.80066,49_01,,0,,
49_02,,矢作,,40.837922,140.80141,49_02,,0,,
50_01,,原別,,40.840197,140.805315,50_01,,0,,
50_02,,原別,,40.840668,140.805835285714,50_02,,0,,
51_01,,下海原,,40.843454,140.809544,51_01,,0,,
51_02,,下海原,,40.843477,140.809415,51_02,,0,,
52_01,,上海原,,40.844704,140.812076,52_01,,0,,
52_02,,上海原,,40.844532,140.811346,52_02,,0,,
53_01,,野内駅前,,40.846248,140.816215,53_01,,0,,
53_02,,野内駅前,,40.846514,140.816456,53_02,,0,,
54_01,,北野内,,40.849499,140.817996,54_01,,0,,
54_02,,北野内,,40.84957,140.818189,54_02,,0,,
55_01,,東野内,,40.854035,140.82295,55_01,,0,,
55_02,,東野内,,40.853901,140.823073,55_02,,0,,
56_01,,野内,,40.857332,140.825967,56_01,,0,,
56_02,,野内,,40.857492,140.826198,56_02,,0,,
57_01,,浦島,,40.862584,140.835369,57_01,,0,,
57_02,,浦島,,40.862306,140.835179,57_02,,0,,
58_01,,観音寺通り,,40.871254,140.842137,58_01,,0,,
58_02,,観音寺通り,,40.871217,140.842346,58_02,,0,,
59_01,,久栗坂,,40.874013,140.847052,59_01,,0,,
59_02,,久栗坂,,40.874031,140.847225,59_02,,0,,
60_01,,青森敬仁会病院前,,40.87624,140.849172,60_01,,0,,
60_02,,青森敬仁会病院前,,40.876747,140.849676,60_02,,0,,
61_01,,津軽高野山,,40.885722,140.856033,61_01,,0,,
61_02,,津軽高野山,,40.88559,140.856288,61_02,,0,,
63_02,,浅虫消防分署前,,40.896459,140.861081,63_02,,0,,
64_01,,浅虫水族館通り,,40.900436,140.861623,64_01,,0,,
64_02,,浅虫水族館通り,,40.900191,140.861548,64_02,,0,,
65_01,,道の駅ゆーさ浅虫前,,40.892523,140.861655,65_01,,0,,
65_02,,道の駅ゆーさ浅虫前,,40.891534,140.861255,65_02,,0,,
66_01,,アウガ前,,40.827685,140.736047,66_01,,0,,
143_01,,東高校前,,40.836826,140.805528,143_01,,0,,
143_02,,東高校前,,40.836595,140.805346,143_02,,0,,
144_01,,原別小学校前,,40.833797,140.810096,144_01,,0,,
144_02,,原別小学校前,,40.833659,140.809919,144_02,,0,,
146_01,,森越,,40.830656,140.818766,146_01,,0,,
146_02,,森越,,40.830232,140.819182,146_02,,0,,
147_01,,下諏訪沢,,40.828631,140.823869,147_01,,0,,
147_02,,下諏訪沢,,40.828554,140.823692,147_02,,0,,
148_01,,諏訪沢,,40.827848,140.827496,148_01,,0,,
148_02,,諏訪沢,,40.827766,140.827519,148_02,,0,,
149_01,,下築木館,,40.824338,140.841979,149_01,,0,,
149_02,,下築木館,,40.824318,140.841808,149_02,,0,,
150_01,,築木館,,40.82402,140.845096,150_01,,0,,
150_02,,築木館,,40.823988,140.845053,150_02,,0,,
151_01,,矢田前,,40.832553,140.809391,151_01,,0,,
152_01,,県立盲学校前,,40.831277,140.811239,152_01,,0,,
154_01,,八重田通り,,40.826476,140.798104,154_01,,0,,
154_02,,八重田通り,,40.826739,140.798435,154_02,,0,,
154_03,,八重田通り,,40.825554,140.799421,154_03,,0,,
155_01,,後萢通り,,40.829428,140.81375,155_01,,0,,
155_02,,後萢通り,,40.829613,140.813672,155_02,,0,,
156_01,,ＪＡ青森支店前,,40.831696,140.81882,156_01,,0,,
156_02,,ＪＡ青森支店前,,40.831755,140.818571,156_02,,0,,
157_01,,岡造道大通り,,40.827442,140.784689,157_01,,0,,
158_01,,岡造道,,40.826005,140.786145,158_01,,0,,
158_02,,岡造道,,40.825901,140.786054,158_02,,0,,
159_01,,小柳,,40.820904,140.791791,159_01,,0,,
159_02,,小柳,,40.820961,140.791684,159_02,,0,,
160_01,,小柳団地入口,,40.819032,140.793707,160_01,,0,,
160_02,,小柳団地入口,,40.819,140.793187,160_02,,0,,
161_01,,小柳小学校前,,40.82001,140.79578,161_01,,0,,
161_02,,小柳小学校前,,40.820053,140.795582,161_02,,0,,
163_01,,小柳橋,,40.822594,140.798602,163_01,,0,,
163_02,,小柳橋,,40.82258,140.798387,163_02,,0,,
164_01,,明の星高校前,,40.824054,140.780565,164_01,,0,,
164_02,,明の星高校前,,40.823993,140.780356,164_02,,0,,
165_01,,東佃,,40.820009,140.782166,165_01,,0,,
165_02,,東佃,,40.821198,140.78144,165_02,,0,,
166_01,,南佃,,40.816252,140.784943,166_01,,0,,
166_02,,南佃,,40.816356,140.784841,166_02,,0,,
166_03,,南佃,,40.816944,140.785576,166_03,,0,,
166_04,,南佃,,40.816089,140.786955,166_04,,0,,
167_01,,県立保健大学前,,40.81176,140.791142,167_01,,0,,
167_02,,県立保健大学前,,40.811531,140.79104,167_02,,0,,
169_01,,月見野入口,,40.79964,140.795402,169_01,,0,,
169_02,,月見野入口,,40.799547,140.795686,169_02,,0,,
170_01,,月見野,,40.79706,140.797159,170_01,,0,,
170_02,,月見野,,40.797157,140.796955,170_02,,0,,
171_01,,戸山団地入口,,40.795428,140.798502,171_01,,0,,
171_02,,戸山団地入口,,40.79542,140.797762,171_02,,0,,
173_01,,戸山団地中央通り,,40.79732,140.801222,173_01,,0,,
173_02,,戸山団地中央通り,,40.797167,140.80139,173_02,,0,,
174_01,,戸山中央公園前,,40.796382,140.805822,174_01,,0,,
174_02,,戸山中央公園前,,40.796142,140.805844,174_02,,0,,
175_01,,北蛍沢,,40.79946,140.799416,175_01,,0,,
175_02,,北蛍沢,,40.799399,140.799289,175_02,,0,,
176_01,,戸山西小学校前,,40.801822,140.799644,176_01,,0,,
176_02,,戸山西小学校前,,40.801692,140.799429,176_02,,0,,
177_01,,戸山,,40.805857,140.801445,177_01,,0,,
177_02,,戸山,,40.806061,140.801586,177_02,,0,,
178_01,,戸崎,,40.814165,140.812221,178_01,,0,,
178_02,,戸崎,,40.814068,140.812336,178_02,,0,,
179_01,,桑原,,40.820657,140.81033,179_01,,0,,
179_02,,桑原,,40.820622,140.81036,179_02,,0,,
180_01,,佃中学校前,,40.814592,140.779809,180_01,,0,,
180_02,,佃中学校前,,40.814769,140.779876,180_02,,0,,
181_01,,花園二丁目,,40.822132,140.77043,181_01,,0,,
181_02,,花園二丁目,,40.82226,140.770028,181_02,,0,,
182_01,,福田,,40.820248,140.772369,182_01,,0,,
182_02,,福田,,40.820731,140.771556,182_02,,0,,
183_01,,西佃,,40.817951,140.77441,183_01,,0,,
183_02,,西佃,,40.817758,140.774289,183_02,,0,,
184_01,,松森,,40.816082,140.775311,184_01,,0,,
184_02,,松森,,40.815838,140.775204,184_02,,0,,
185_01,,佃,,40.813096,140.77677,185_01,,0,,
185_02,,佃,,40.813989,140.775998,185_02,,0,,
185_03,,佃,,40.813827,140.777384,185_03,,0,,
185_04,,佃,,40.813656,140.77737,185_04,,0,,
186_01,,上松森,,40.811487,140.778202,186_01,,0,,
186_02,,上松森,,40.811473,140.777936,186_02,,0,,
187_01,,古館,,40.805771,140.780791,187_01,,0,,
187_02,,古館,,40.80546,140.780702,187_02,,0,,
189_01,,浜館三丁目,,40.808928,140.785878,189_01,,0,,
189_02,,浜館三丁目,,40.808861,140.786034,189_02,,0,,
193_01,,平和公園前,,40.81947,140.754969,193_01,,0,,
193_02,,平和公園前,,40.819444,140.754706,193_02,,0,,
194_01,,棟方志功記念館通り,,40.82045,140.763019,194_01,,0,,
194_02,,棟方志功記念館通り,,40.820973,140.762648,194_02,,0,,
195_01,,松原三丁目,,40.816455,140.763946,195_01,,0,,
195_02,,松原三丁目,,40.816847,140.763833,195_02,,0,,
196_01,,奥野,,40.813516,140.763857,196_01,,0,,
196_02,,奥野,,40.813853,140.763758,196_02,,0,,
197_01,,筒井通り,,40.810106,140.763661,197_01,,0,,
197_02,,筒井通り,,40.811239,140.762708,197_02,,0,,
198_01,,青森高校前,,40.807548,140.767279,198_01,,0,,
198_02,,青森高校前,,40.808421,140.765825,198_02,,0,,
200_01,,下筒井,,40.805015,140.771752,200_01,,0,,
200_02,,下筒井,,40.804761,140.772055,200_02,,0,,
201_01,,中筒井,,40.802541,140.775395,201_01,,0,,
201_02,,中筒井,,40.8024,140.775328,201_02,,0,,
201_03,,中筒井,,40.803351,140.77554,201_03,,0,,
201_04,,中筒井,,40.803266,140.775505,201_04,,0,,
202_01,,古館十文字,,40.801467,140.781994,202_01,,0,,
202_02,,古館十文字,,40.801709,140.781259,202_02,,0,,
203_01,,古館大柳,,40.798939,140.786579,203_01,,0,,
203_02,,古館大柳,,40.798868,140.786516,203_02,,0,,
204_01,,駒込見吉通り,,40.798342,140.788729,204_01,,0,,
204_02,,駒込見吉通り,,40.798258,140.788646,204_02,,0,,
205_01,,駒込,,40.798492,140.792057,205_01,,0,,
205_02,,駒込,,40.798373,140.792344,205_02,,0,,
206_01,,上筒井,,40.798851,140.776414,206_01,,0,,
206_02,,上筒井,,40.798701,140.776288,206_02,,0,,
207_01,,幸畑唐崎,,40.794636,140.780091,207_01,,0,,
207_02,,幸畑唐崎,,40.794652,140.779909,207_02,,0,,
208_01,,松元台団地,,40.79214,140.784278,208_01,,0,,
208_02,,松元台団地,,40.792016,140.784326,208_02,,0,,
209_01,,幸畑,,40.791685,140.786673,209_01,,0,,
209_02,,幸畑,,40.790954,140.786729,209_02,,0,,
209_04,,幸畑,,40.790184,140.788009,209_04,,0,,
209_05,,幸畑,,40.790357,140.788108,209_05,,0,,
210_01,,幸畑墓苑,,40.785411,140.789838,210_01,,0,,
210_02,,幸畑墓苑,,40.785372,140.78969,210_02,,0,,
211_01,,阿部野,,40.779958,140.79297,211_01,,0,,
211_02,,阿部野,,40.779873,140.792903,211_02,,0,,
212_01,,田茂木野入口,,40.768578,140.799929,212_01,,0,,
212_02,,田茂木野入口,,40.768545,140.79996,212_02,,0,,
213_01,,田茂木野公民館前,,40.766212,140.797447,213_01,,0,,
213_02,,田茂木野公民館前,,40.766134,140.797483,213_02,,0,,
214_01,,田茂木野,,40.763779,140.796256,214_01,,0,,
229_01,,桜川六丁目,,40.811113,140.768256,229_01,,0,,
229_02,,桜川六丁目,,40.811279,140.767768,229_02,,0,,
230_01,,桜川中央,,40.813142,140.768896,230_01,,0,,
230_02,,桜川中央,,40.813247,140.768994,230_02,,0,,
231_01,,桜川三丁目,,40.816271,140.771222,231_01,,0,,
231_02,,桜川三丁目,,40.81626,140.771038,231_02,,0,,
232_01,,桜川福祉館前,,40.813374,140.772284,232_01,,0,,
232_02,,桜川福祉館前,,40.81348,140.772086,232_02,,0,,
233_01,,働く女性の家前,,40.817226,140.751183,233_01,,0,,
233_02,,働く女性の家前,,40.817224,140.750923,233_02,,0,,
235_01,,市民病院前,,40.816063,140.755259,235_01,,0,,
236_01,,自動車会議所前,,40.814985,140.757556,236_01,,0,,
236_02,,自動車会議所前,,40.81489,140.757776,236_02,,0,,
238_01,,桜川一丁目,,40.817062,140.76859,238_01,,0,,
238_02,,桜川一丁目,,40.816904,140.768569,238_02,,0,,
239_01,,みちのく銀行本店前,,40.814855,140.752473,239_01,,0,,
239_02,,みちのく銀行本店前,,40.814859,140.752191,239_02,,0,,
240_01,,サンロード青森前,,40.809442,140.754016,240_01,,0,,
240_02,,サンロード青森前,,40.808091,140.754228,240_02,,0,,
240_03,,サンロード青森前,,40.808477,140.753351,240_03,,0,,
240_04,,サンロード青森前,,40.808359,140.753488,240_04,,0,,
241_01,,DCM青森中央店前,,40.805334,140.755521,241_01,,0,,
241_02,,DCM青森中央店前,,40.805525,140.755188,241_02,,0,,
241_03,,DCM青森中央店前,,40.805082,140.754053,241_03,,0,,
242_01,,下玉川,,40.801957,140.756762,242_01,,0,,
242_02,,下玉川,,40.801378,140.756757,242_02,,0,,
243_01,,上玉川,,40.797692,140.75836,243_01,,0,,
243_02,,上玉川,,40.79772,140.758092,243_02,,0,,
244_01,,妙見,,40.790455,140.761236,244_01,,0,,
244_02,,妙見,,40.79168,140.760422,244_02,,0,,
244_04,,妙見,,40.793373,140.758277,244_04,,0,,
245_01,,地域整備部前,,40.794276,140.773154,245_01,,0,,
245_02,,地域整備部前,,40.794106,140.773008,245_02,,0,,
247_01,,問屋町入口,,40.788132,140.762298,247_01,,0,,
247_02,,問屋町入口,,40.789458,140.761472,247_02,,0,,
247_03,,問屋町入口,,40.788632,140.760815,247_03,,0,,
248_01,,問屋町大通り,,40.788325,140.757934,248_01,,0,,
248_02,,問屋町大通り,,40.788506,140.757934,248_02,,0,,
250_01,,問屋町会館前,,40.788063,140.75571,250_01,,0,,
250_02,,問屋町会館前,,40.788239,140.75547,250_02,,0,,
251_01,,青森中央学院大学前,,40.783133,140.764508,251_01,,0,,
251_02,,青森中央学院大学前,,40.783007,140.764404,251_02,,0,,
252_01,,北野尻,,40.781391,140.765326,252_01,,0,,
252_02,,北野尻,,40.781143,140.765321,252_02,,0,,
253_01,,横内,,40.777528,140.765773,253_01,,0,,
253_02,,横内,,40.775645,140.766009,253_02,,0,,
253_04,,横内,,40.777412,140.767412,253_04,,0,,
253_05,,横内,,40.776685,140.765241,253_05,,0,,
253_06,,横内,,40.7768473333333,140.765303857143,253_06,,0,,
254_01,,新町野,,40.773231,140.75961,254_01,,0,,
254_02,,新町野,,40.773509,140.759954,254_02,,0,,
255_01,,斎場前,,40.771391,140.749747,255_01,,0,,
255_02,,斎場前,,40.771498,140.749869,255_02,,0,,
256_01,,流通団地,,40.767794,140.740402,256_01,,0,,
256_02,,流通団地,,40.767857,140.740096,256_02,,0,,
257_01,,青森大学前,,40.785079,140.782915,257_01,,0,,
257_02,,青森大学前,,40.785231,140.782942,257_02,,0,,
257_03,,青森大学前,,40.785285,140.781876,257_03,,0,,
258_01,,幸畑団地西口,,40.781832,140.777927,258_01,,0,,
258_02,,幸畑団地西口,,40.782258,140.777075,258_02,,0,,
259_01,,幸畑団地,,40.781564,140.782486,259_01,,0,,
259_02,,幸畑団地,,40.781103,140.781445,259_02,,0,,
260_01,,幸畑団地東通り,,40.78302,140.784312,260_01,,0,,
260_02,,幸畑団地東通り,,40.782543,140.784331,260_02,,0,,
261_01,,大矢沢公民館前,,40.780749,140.77362,261_01,,0,,
261_02,,大矢沢公民館前,,40.78058,140.773572,261_02,,0,,
262_01,,四ッ石,,40.778994,140.771332,262_01,,0,,
262_02,,四ッ石,,40.778803,140.771109,262_02,,0,,
264_01,,南奥野,,40.808642,140.750131,264_01,,0,,
264_02,,南奥野,,40.808447,140.75052,264_02,,0,,
265_01,,南中学校,,40.809331,140.746871,265_01,,0,,
265_02,,南中学校,,40.809206,140.746869,265_02,,0,,
266_01,,やはぎ,,40.791839,140.75435,266_01,,0,,
267_01,,八ッ役,,40.787251,140.74691,267_01,,0,,
270_01,,南旭町,,40.816995,140.734654,270_01,,0,,
270_02,,南旭町,,40.817862,140.734295,270_02,,0,,
271_01,,常盤町,,40.815956,140.735223,271_01,,0,,
271_02,,常盤町,,40.815919,140.735133,271_02,,0,,
272_01,,甲田町,,40.813984,140.735944,272_01,,0,,
272_02,,甲田町,,40.814061,140.735821,272_02,,0,,
273_01,,甲田中学校通り,,40.810645,140.737009,273_01,,0,,
273_02,,甲田中学校通り,,40.811296,140.736647,273_02,,0,,
274_01,,南片岡,,40.808884,140.738581,274_01,,0,,
274_02,,南片岡,,40.808919,140.738077,274_02,,0,,
275_01,,大野十文字,,40.807418,140.741177,275_01,,0,,
275_02,,大野十文字,,40.806539,140.740839,275_02,,0,,
275_03,,大野十文字,,40.8075129557427,140.739824199944,275_03,,0,,
275_04,,大野十文字,,40.80718996892,140.739823967138,275_04,,0,,
276_01,,中央高校前,,40.800537,140.742257,276_01,,0,,
276_02,,中央高校前,,40.800377,140.741957,276_02,,0,,
277_01,,農協会館前,,40.799302,140.740223,277_01,,0,,
277_02,,農協会館前,,40.799223,140.739925,277_02,,0,,
278_01,,中大野,,40.806875,140.736875,278_01,,0,,
278_02,,中大野,,40.806918,140.73662,278_02,,0,,
279_01,,大野市民センター前,,40.804884,140.73387,279_01,,0,,
279_02,,大野市民センター前,,40.804931,140.733739,279_02,,0,,
280_01,,下山下,,40.802826,140.7318,280_01,,0,,
280_02,,下山下,,40.802984,140.73183,280_02,,0,,
281_01,,大野山下,,40.80175,140.730602,281_01,,0,,
281_02,,大野山下,,40.801764,140.730495,281_02,,0,,
282_01,,大野,,40.79939,140.731605,282_01,,0,,
282_02,,大野,,40.799299,140.731657,282_02,,0,,
283_01,,大野前田,,40.799116,140.735622,283_01,,0,,
283_02,,大野前田,,40.799029,140.735617,283_02,,0,,
284_01,,青森刑務所前,,40.793876,140.739514,284_01,,0,,
284_02,,青森刑務所前,,40.79386,140.739289,284_02,,0,,
285_01,,荒川柴田,,40.789865,140.739011,285_01,,0,,
285_02,,荒川柴田,,40.789737,140.738767,285_02,,0,,
286_01,,荒川市民センター前,,40.78544,140.738453,286_01,,0,,
286_02,,荒川市民センター前,,40.785893,140.738303,286_02,,0,,
287_01,,荒川十文字,,40.782024,140.73771,287_01,,0,,
287_02,,荒川十文字,,40.782526,140.737581,287_02,,0,,
288_01,,荒川中学校前,,40.78005,140.73841,288_01,,0,,
288_02,,荒川中学校前,,40.780218,140.738097,288_02,,0,,
289_01,,上野十文字,,40.778144,140.738722,289_01,,0,,
289_02,,上野十文字,,40.778147,140.738563,289_02,,0,,
289_03,,上野十文字,,40.777749,140.739481,289_03,,0,,
290_01,,上野,,40.776084,140.742405,290_01,,0,,
290_02,,上野,,40.776064,140.742598,290_02,,0,,
291_01,,やはぎ宿舎前,,40.792181,140.75103,291_01,,0,,
291_02,,やはぎ宿舎前,,40.792118,140.750877,291_02,,0,,
292_01,,金浜精米所前,,40.772361,140.731357,292_01,,0,,
292_02,,金浜精米所前,,40.772396,140.731271,292_02,,0,,
293_01,,金浜,,40.769739,140.730161,293_01,,0,,
293_02,,金浜,,40.769808,140.730156,293_02,,0,,
294_01,,高田通り,,40.76756,140.729987,294_01,,0,,
294_02,,高田通り,,40.767699,140.729859,294_02,,0,,
295_01,,金浜小学校前,,40.764324,140.731138,295_01,,0,,
295_02,,金浜小学校前,,40.764294,140.730982,295_02,,0,,
296_01,,野木野尻,,40.763867,140.737396,296_01,,0,,
296_02,,野木野尻,,40.76377,140.737278,296_02,,0,,
297_01,,野木,,40.762611,140.740328571429,297_01,,0,,
297_02,,野木,,40.762661,140.740202857143,297_02,,0,,
298_01,,大別内,,40.760743,140.730125,298_01,,0,,
298_02,,大別内,,40.760946,140.730177,298_02,,0,,
299_01,,中野内,,40.852148,140.821641,299_01,,0,,
299_02,,中野内,,40.851474,140.821274,299_02,,0,,
325_01,,古川小学校前,,40.823468,140.73334,325_01,,0,,
325_02,,古川小学校前,,40.823488,140.733125,325_02,,0,,
326_01,,古川中学校前,,40.819261,140.730193,326_01,,0,,
326_02,,古川中学校前,,40.819184,140.729847,326_02,,0,,
327_01,,久須志四丁目,,40.816593,140.726279,327_01,,0,,
327_02,,久須志四丁目,,40.816412,140.725834,327_02,,0,,
328_01,,富永,,40.814814,140.723694,328_01,,0,,
328_02,,富永,,40.814607,140.723206,328_02,,0,,
329_01,,浪館前田,,40.813201,140.721298,329_01,,0,,
329_02,,浪館前田,,40.812896,140.720668,329_02,,0,,
330_01,,浪館,,40.810239,140.717092,330_01,,0,,
330_02,,浪館,,40.81024,140.716898,330_02,,0,,
332_01,,金沢小学校前,,40.808696,140.730349,332_01,,0,,
332_02,,金沢小学校前,,40.808832,140.729955,332_02,,0,,
333_01,,金沢小学校通り,,40.808091,140.736438,333_01,,0,,
333_02,,金沢小学校通り,,40.80826,140.736521,333_02,,0,,
334_01,,自衛隊前,,40.809641,140.711989,334_01,,0,,
334_02,,自衛隊前,,40.809783,140.712225,334_02,,0,,
335_01,,総合運動公園前,,40.808439,140.710943,335_01,,0,,
335_02,,総合運動公園前,,40.808394,140.710688,335_02,,0,,
336_01,,慈恵会病院前,,40.803007,140.706616285714,336_01,,0,,
336_02,,慈恵会病院前,,40.802908,140.706581,336_02,,0,,
336_03,,慈恵会病院前,,40.803212740705,140.706188017807,336_03,,0,,
336_04,,慈恵会病院前,,40.8028227701321,140.706582652729,336_04,,0,,
337_01,,安田近野,,40.801974,140.711289,337_01,,0,,
337_02,,安田近野,,40.801984,140.711176,337_02,,0,,
338_01,,上安田,,40.799998,140.711356,338_01,,0,,
338_02,,上安田,,40.800071,140.711276,338_02,,0,,
340_01,,下細越,,40.792438,140.712083,340_01,,0,,
340_02,,下細越,,40.791943,140.712075,340_02,,0,,
341_01,,細越公民館前,,40.789116,140.712673,341_01,,0,,
341_02,,細越公民館前,,40.789222,140.712495,341_02,,0,,
342_01,,中細越,,40.787418,140.713357,342_01,,0,,
342_02,,中細越,,40.787522,140.713279,342_02,,0,,
343_01,,上細越,,40.784088,140.712748,343_01,,0,,
343_02,,上細越,,40.784129,140.712668,343_02,,0,,
344_01,,細越,,40.782147,140.713092,344_01,,0,,
344_02,,細越,,40.782267,140.712923,344_02,,0,,
347_01,,里見一丁目,,40.819156,140.710032,347_01,,0,,
347_02,,里見一丁目,,40.818978,140.70985,347_02,,0,,
348_01,,上古川,,40.825151,140.728946,348_01,,0,,
348_02,,上古川,,40.825426,140.729241,348_02,,0,,
348_03,,上古川,,40.826551,140.728324,348_03,,0,,
349_01,,西上古川,,40.825688,140.725211,349_01,,0,,
349_02,,西上古川,,40.826006,140.725291,349_02,,0,,
350_01,,西滝,,40.826419,140.720098,350_01,,0,,
350_02,,西滝,,40.826895,140.719275,350_02,,0,,
351_01,,ヤクルト前,,40.82535,140.710612,351_01,,0,,
351_02,,ヤクルト前,,40.825615,140.710765,351_02,,0,,
352_01,,三内稲元,,40.82316,140.711894,352_01,,0,,
352_02,,三内稲元,,40.823438,140.71206,352_02,,0,,
354_01,,下三内,,40.819419,140.704103,354_01,,0,,
354_02,,下三内,,40.819537,140.704245,354_02,,0,,
355_01,,中三内,,40.817676,140.699754,355_01,,0,,
355_02,,中三内,,40.817682,140.699609,355_02,,0,,
356_01,,上三内,,40.816639,140.695371,356_01,,0,,
356_02,,上三内,,40.816671,140.695181,356_02,,0,,
357_01,,三内温泉前,,40.815333,140.689281,357_01,,0,,
357_02,,三内温泉前,,40.815309,140.688921,357_02,,0,,
359_01,,つくしが丘病院前,,40.8109700000001,140.680656571428,359_01,,0,,
359_03,,つくしが丘病院前,,40.810959,140.680784,359_03,,0,,
359_04,,つくしが丘病院前,,40.810744,140.680671,359_04,,0,,
360_01,,牧場前,,40.801561,140.672987,360_01,,0,,
360_02,,牧場前,,40.801567,140.672877,360_02,,0,,
361_01,,高峰,,40.790655,140.666405,361_01,,0,,
361_02,,高峰,,40.790684,140.666278,361_02,,0,,
362_01,,岩渡,,40.780242,140.666934,362_01,,0,,
362_02,,岩渡,,40.780284,140.666931428572,362_02,,0,,
363_01,,マツダ自動車前,,40.82478,140.70394,363_01,,0,,
363_02,,マツダ自動車前,,40.825136,140.704767,363_02,,0,,
364_01,,あすなろセンター前,,40.824946,140.700904,364_01,,0,,
364_02,,あすなろセンター前,,40.825041,140.701208,364_02,,0,,
365_01,,石江,,40.826001,140.695127,365_01,,0,,
365_02,,石江,,40.826216,140.695607,365_02,,0,,
366_01,,三内霊園入口,,40.82562,140.692167,366_01,,0,,
366_02,,三内霊園入口,,40.825748,140.691676,366_02,,0,,
367_01,,松丘保養園前,,40.825411,140.686701,367_01,,0,,
367_02,,松丘保養園前,,40.825616,140.685884,367_02,,0,,
368_01,,西高校前,,40.826296,140.682115,368_01,,0,,
368_02,,西高校前,,40.826205,140.682948,368_02,,0,,
369_01,,西部市民センター前,,40.82716,140.677861,369_01,,0,,
369_02,,西部市民センター前,,40.827677,140.675908,369_02,,0,,
370_01,,新城駅前,,40.827513,140.672687,370_01,,0,,
370_02,,新城駅前,,40.82773,140.672655,370_02,,0,,
371_01,,天狗立,,40.826595,140.668591,371_01,,0,,
371_02,,天狗立,,40.826892,140.669419,371_02,,0,,
372_01,,平岡大橋,,40.823579,140.661262,372_01,,0,,
372_02,,平岡大橋,,40.823613,140.661108,372_02,,0,,
373_01,,西部営業所,,40.822458,140.661671,373_01,,0,,
373_02,,西部営業所,,40.822389,140.661856,373_02,,0,,
374_01,,白旗野,,40.820624,140.653947,374_01,,0,,
374_02,,白旗野,,40.820838,140.654159,374_02,,0,,
375_01,,戸門見通,,40.817081,140.648288,375_01,,0,,
375_02,,戸門見通,,40.81722,140.648325,375_02,,0,,
390_01,,自衛隊宿舎入口,,40.814552,140.712668,390_01,,0,,
390_02,,自衛隊宿舎入口,,40.813752,140.713245,390_02,,0,,
413_01,,駅西口通り,,40.828778,140.728351,413_01,,0,,
413_02,,駅西口通り,,40.829227,140.728571,413_02,,0,,
414_01,,森林博物館前,,40.83015,140.727444,414_01,,0,,
414_02,,森林博物館前,,40.831051,140.725864,414_02,,0,,
415_01,,沖館仲通り,,40.832986,140.723333,415_01,,0,,
415_02,,沖館仲通り,,40.834158,140.723799571429,415_02,,0,,
416_01,,沖館消防分署前,,40.835763,140.723278,416_01,,0,,
416_02,,沖館消防分署前,,40.836091,140.722953,416_02,,0,,
417_01,,沖館,,40.837446,140.720761,417_01,,0,,
417_02,,沖館,,40.837332,140.721196,417_02,,0,,
418_01,,森林管理局宿舎前,,40.838887,140.718594,418_01,,0,,
418_02,,森林管理局宿舎前,,40.839461,140.718039,418_02,,0,,
419_01,,新田,,40.840551,140.716352,419_01,,0,,
419_02,,新田,,40.840941,140.715974,419_02,,0,,
420_01,,木材港前,,40.84438,140.70907,420_01,,0,,
420_02,,木材港前,,40.844528,140.709091,420_02,,0,,
421_01,,油川新井田,,40.846312,140.705722,421_01,,0,,
421_02,,油川新井田,,40.846529,140.705572,421_02,,0,,
422_01,,油川下町,,40.849235,140.701737,422_01,,0,,
422_02,,油川下町,,40.849148,140.701986,422_02,,0,,
423_01,,油川浪返,,40.850829,140.699986,423_01,,0,,
423_02,,油川浪返,,40.850813,140.700112,423_02,,0,,
424_01,,浄満寺前,,40.852501,140.698063,424_01,,0,,
424_02,,浄満寺前,,40.852306,140.698428,424_02,,0,,
425_01,,油川仲町,,40.854578,140.695813,425_01,,0,,
425_02,,油川仲町,,40.854083,140.696446,425_02,,0,,
428_01,,厚生病院前,,40.834719,140.679188,428_01,,0,,
428_02,,厚生病院前,,40.835673,140.677571,428_02,,0,,
430_01,,油川中学校通り,,40.856248,140.694054,430_01,,0,,
430_02,,油川中学校通り,,40.856291,140.693909,430_02,,0,,
431_01,,油川中学校前,,40.854237,140.689967,431_01,,0,,
431_02,,油川中学校前,,40.854441,140.690199,431_02,,0,,
432_01,,北高校前,,40.85289,140.686189,432_01,,0,,
432_02,,北高校前,,40.852994,140.685985,432_02,,0,,
433_01,,油川市民センター前,,40.851878,140.683094,433_01,,0,,
433_02,,油川市民センター前,,40.85194,140.683219,433_02,,0,,
434_01,,新生町,,40.856869,140.685451,434_01,,0,,
434_02,,新生町,,40.856695,140.685352,434_02,,0,,
435_01,,野木和団地,,40.858112,140.683423,435_01,,0,,
435_02,,野木和団地,,40.858104,140.683702,435_02,,0,,
436_01,,十三森,,40.857507,140.693353,436_01,,0,,
436_02,,十三森,,40.856635,140.694152,436_02,,0,,
437_01,,油川駅通り,,40.858414,140.69239,437_01,,0,,
437_02,,油川駅通り,,40.858451,140.692468,437_02,,0,,
438_01,,西田沢,,40.861712,140.689985,438_01,,0,,
438_02,,西田沢,,40.861767,140.690046,438_02,,0,,
439_01,,西田沢浜田,,40.864291,140.687921,439_01,,0,,
439_02,,西田沢浜田,,40.864283,140.688036,439_02,,0,,
440_01,,夏井田,,40.87125,140.683412,440_01,,0,,
440_02,,夏井田,,40.87089,140.683764,440_02,,0,,
865_01,,旧西田沢小学校前,,40.873382,140.681713,865_01,,0,,
865_02,,旧西田沢小学校前,,40.873355,140.681871,865_02,,0,,
442_01,,飛鳥,,40.878656,140.679642,442_01,,0,,
442_02,,飛鳥,,40.878674,140.679733,442_02,,0,,
443_01,,瀬戸子,,40.883078,140.67774,443_01,,0,,
443_02,,瀬戸子,,40.883043,140.67785,443_02,,0,,
444_01,,奥内支所前,,40.88706,140.676132,444_01,,0,,
444_02,,奥内支所前,,40.887055,140.67628,444_02,,0,,
445_01,,奥内宮田,,40.888796,140.675287,445_01,,0,,
445_02,,奥内宮田,,40.88877,140.675399,445_02,,0,,
446_01,,奥内局前,,40.891822,140.674565,446_01,,0,,
446_02,,奥内局前,,40.891969,140.674514,446_02,,0,,
447_01,,前田,,40.895992,140.673873,447_01,,0,,
447_02,,前田,,40.896013,140.673975,447_02,,0,,
448_01,,前田湯の沢,,40.898649,140.673924,448_01,,0,,
448_02,,前田湯の沢,,40.898659,140.674016,448_02,,0,,
866_01,,北小学校前,,40.901076,140.673598,866_01,,0,,
866_02,,北小学校前,,40.900721,140.673738,866_02,,0,,
450_01,,奥内駅前,,40.902416,140.673539,450_01,,0,,
450_02,,奥内駅前,,40.902275,140.673648,450_02,,0,,
451_01,,清水浜元,,40.905382,140.672815,451_01,,0,,
451_02,,清水浜元,,40.905538,140.672874,451_02,,0,,
452_01,,内真部,,40.908258,140.672247,452_01,,0,,
452_02,,内真部,,40.908286,140.672325,452_02,,0,,
453_01,,内真部岸田,,40.910347,140.671354,453_01,,0,,
453_02,,内真部岸田,,40.910349,140.671461,453_02,,0,,
454_01,,左堰,,40.913483,140.670516,454_01,,0,,
454_02,,左堰,,40.913501,140.670598,454_02,,0,,
455_01,,左堰製材所前,,40.916942,140.669666,455_01,,0,,
455_02,,左堰製材所前,,40.91696,140.669744,455_02,,0,,
456_01,,小橋,,40.919954,140.668821,456_01,,0,,
456_02,,小橋,,40.920027,140.668891,456_02,,0,,
457_01,,小橋稲田,,40.922147,140.66785,457_01,,0,,
457_02,,小橋稲田,,40.922066,140.66799,457_02,,0,,
458_01,,小橋田川,,40.924599,140.667192,458_01,,0,,
458_02,,小橋田川,,40.924563,140.667299,458_02,,0,,
460_01,,後潟支所前,,40.934097,140.663715,460_01,,0,,
460_02,,後潟支所前,,40.934111,140.663817,460_02,,0,,
461_01,,後潟大原,,40.937455,140.662686,461_01,,0,,
461_02,,後潟大原,,40.937472,140.662768,461_02,,0,,
462_01,,後潟平野,,40.940751,140.661917,462_01,,0,,
462_02,,後潟平野,,40.940763,140.661997,462_02,,0,,
463_01,,後潟高島前,,40.942608,140.661146,463_01,,0,,
463_02,,後潟高島前,,40.942622,140.661235,463_02,,0,,
464_01,,後潟磯部,,40.945837,140.660188,464_01,,0,,
464_02,,後潟磯部,,40.946024,140.660084,464_02,,0,,
596_01,,浄水場入口,,40.773942,140.766138,596_01,,0,,
596_02,,浄水場入口,,40.774011,140.765964,596_02,,0,,
597_01,,亀井,,40.770546,140.770191,597_01,,0,,
597_02,,亀井,,40.770672,140.770003,597_02,,0,,
598_01,,芙蓉会病院前,,40.749973,140.778657,598_01,,0,,
598_02,,芙蓉会病院前,,40.749709,140.778845,598_02,,0,,
599_01,,雲谷,,40.747092,140.782016,599_01,,0,,
599_02,,雲谷,,40.747171,140.781839,599_02,,0,,
611_01,,沢山,,40.790219,140.82248,611_01,,0,,
611_02,,沢山,,40.790253,140.822522,611_02,,0,,
612_01,,蛍ヶ丘,,40.797695,140.808153,612_01,,0,,
612_02,,蛍ヶ丘,,40.797378,140.808765,612_02,,0,,
613_01,,戸山東公園前,,40.798686,140.811729,613_01,,0,,
613_02,,戸山東公園前,,40.798018,140.811426,613_02,,0,,
614_01,,戸山北公園前,,40.801397,140.810404,614_01,,0,,
614_02,,戸山北公園前,,40.801161,140.811233,614_02,,0,,
615_01,,戸山団地北赤坂市民館前,,40.802599,140.806948,615_01,,0,,
615_02,,戸山団地北赤坂市民館前,,40.802586,140.806989,615_02,,0,,
616_01,,平和台団地,,40.832838,140.668688,616_01,,0,,
616_02,,平和台団地,,40.83295,140.668015,616_02,,0,,
617_01,,ガーラタウン前,,40.831862,140.702011,617_01,,0,,
617_02,,ガーラタウン前,,40.832255,140.701892,617_02,,0,,
618_01,,西郵便局前,,40.828448,140.706576,618_01,,0,,
618_02,,西郵便局前,,40.828919,140.706549,618_02,,0,,
619_01,,東保健所前,,40.788782,140.749219,619_01,,0,,
619_02,,東保健所前,,40.788526,140.749283,619_02,,0,,
620_01,,第二問屋町,,40.79431,140.74924,620_01,,0,,
620_02,,第二問屋町,,40.794035,140.747934,620_02,,0,,
621_01,,戸山団地南,,40.793512,140.806616,621_01,,0,,
621_02,,戸山団地南,,40.793437,140.806586,621_02,,0,,
622_01,,藤老人ホーム前,,40.791568,140.812277,622_01,,0,,
622_02,,藤老人ホーム前,,40.791593,140.812042,622_02,,0,,
624_01,,柳町通り,,40.822326,140.745308,624_01,,0,,
624_02,,柳町通り,,40.822314,140.744796,624_02,,0,,
625_01,,スケート場,,40.796746,140.750709,625_01,,0,,
625_02,,スケート場,,40.7966953333333,140.749852,625_02,,0,,
629_01,,幸畑市民館前,,40.792041,140.790577,629_01,,0,,
629_02,,幸畑市民館前,,40.791966,140.790379,629_02,,0,,
630_01,,流通団地入口,,40.76949,140.740732,630_01,,0,,
630_02,,流通団地入口,,40.770205,140.741408,630_02,,0,,
632_01,,白旗野通り,,40.820401,140.650729,632_01,,0,,
632_02,,白旗野通り,,40.821536,140.651005,632_02,,0,,
637_01,,浅虫水族館前,,40.897319,140.862135,637_01,,0,,
637_02,,浅虫水族館前,,40.897256,140.86214,637_02,,0,,
639_01,,浜館一丁目,,40.805679,140.783162,639_01,,0,,
639_02,,浜館一丁目,,40.805452,140.783318,639_02,,0,,
641_01,,袰懸団地,,40.81748,140.788802,641_01,,0,,
641_02,,袰懸団地,,40.817594,140.788722,641_02,,0,,
643_01,,金沢,,40.809057,140.72654,643_01,,0,,
643_02,,金沢,,40.809126,140.726824,643_02,,0,,
644_01,,南高校通り,,40.806753,140.724569,644_01,,0,,
644_02,,南高校通り,,40.806753,140.724464,644_02,,0,,
645_01,,南高校前,,40.803541,140.722847,645_01,,0,,
650_01,,いちい荘前,,40.825861,140.833036,650_01,,0,,
650_02,,いちい荘前,,40.825842,140.832804,650_02,,0,,
651_01,,昭和大仏,,40.822075,140.814697,651_01,,0,,
651_02,,昭和大仏,,40.82203,140.814627,651_02,,0,,
652_01,,社会教育センター前,,40.79571,140.739761,652_01,,0,,
652_02,,社会教育センター前,,40.795562,140.739477,652_02,,0,,
653_01,,上野山辺,,40.772476,140.739458,653_01,,0,,
654_01,,後潟,,40.948587,140.660018,654_01,,0,,
654_02,,後潟,,40.948579,140.659989,654_02,,0,,
656_01,,サンドーム前,,40.797319,140.753307,656_01,,0,,
656_02,,サンドーム前,,40.797209,140.753157,656_02,,0,,
658_01,,片岡,,40.810167,140.742933,658_01,,0,,
658_02,,片岡,,40.810057,140.742858,658_02,,0,,
659_01,,産業会館前,,40.790267,140.748736,659_01,,0,,
659_02,,産業会館前,,40.790293,140.74846,659_02,,0,,
660_01,,駅西口,,40.8289125441952,140.732182937317,660_01,,0,,
660_02,,駅西口,,40.8289150000001,140.732273428572,660_02,,0,,
660_03,,駅西口,,40.8289277298113,140.73236579446,660_03,,0,,
660_04,,駅西口,,40.8289271939729,140.732452208481,660_04,,0,,
661_01,,南部工業団地入口,,40.765042,140.745051,661_01,,0,,
661_02,,南部工業団地入口,,40.76492,140.74503,661_02,,0,,
662_01,,南部工業団地,,40.761647,140.747115,662_01,,0,,
662_02,,南部工業団地,,40.761677,140.746812,662_02,,0,,
664_01,,滝内,,40.824894,140.713504,664_01,,0,,
664_02,,滝内,,40.824843,140.713327,664_02,,0,,
665_01,,浅虫温泉駅前,,40.891102,140.862132,665_01,,0,,
665_02,,浅虫温泉駅前,,40.891084,140.86214,665_02,,0,,
667_01,,小金沢,,40.838566,140.824641,667_01,,0,,
667_02,,小金沢,,40.839556,140.824539,667_02,,0,,
668_01,,青森変電所前,,40.779879,140.713582,668_01,,0,,
668_02,,青森変電所前,,40.780058,140.713469,668_02,,0,,
669_01,,健康ランド前,,40.833286,140.694607,669_01,,0,,
669_02,,健康ランド前,,40.833552,140.692851,669_02,,0,,
670_02,,橋本小学校前,,40.824477,140.754802,670_02,,0,,
671_03,,青森朝日放送前,,40.785812,140.737267285714,671_03,,0,,
671_04,,青森朝日放送前,,40.78595,140.737225714286,671_04,,0,,
673_01,,森の広場前,,40.793173,140.667561,673_01,,0,,
673_02,,森の広場前,,40.793182,140.667474,673_02,,0,,
679_01,,三内霊園南口,,40.815608,140.691133,679_01,,0,,
679_02,,三内霊園南口,,40.815698,140.691281,679_02,,0,,
681_01,,野木和公園入口,,40.851378,140.681371,681_01,,0,,
681_02,,野木和公園入口,,40.851826,140.681545,681_02,,0,,
682_01,,羽白沢田,,40.855877,140.681239,682_01,,0,,
682_02,,羽白沢田,,40.855956,140.681395,682_02,,0,,
683_01,,上築木館,,40.823337,140.846339,683_01,,0,,
683_02,,上築木館,,40.823306,140.84623,683_02,,0,,
686_03,,運転免許センター,,40.813762,140.699309,686_03,,0,,
686_04,,運転免許センター,,40.813808,140.699292,686_04,,0,,
689_01,,野木宿舎前,,40.766464,140.741947,689_01,,0,,
689_02,,野木宿舎前,,40.766255,140.741749,689_02,,0,,
690_01,,元気プラザ前,,40.822633,140.781118,690_01,,0,,
690_02,,元気プラザ前,,40.822635,140.78089,690_02,,0,,
691_01,,中央大橋通り,,40.809446,140.741541,691_01,,0,,
691_02,,中央大橋通り,,40.809035,140.741206,691_02,,0,,
692_03,,三内丸山遺跡前,,40.809426,140.695878,692_03,,0,,
692_04,,三内丸山遺跡前,,40.809416,140.695929,692_04,,0,,
693_01,,はまだて公園前,,40.806794,140.783294,693_01,,0,,
693_02,,はまだて公園前,,40.807233,140.783298,693_02,,0,,
694_01,,自由ヶ丘一丁目,,40.814256,140.796827,694_01,,0,,
694_02,,自由ヶ丘一丁目,,40.814131,140.79678,694_02,,0,,
695_01,,自由ヶ丘二丁目,,40.812811,140.798807,695_01,,0,,
695_02,,自由ヶ丘二丁目,,40.813019,140.798696,695_02,,0,,
697_01,,青森山田中学・高校前,,40.805561,140.748352,697_01,,0,,
697_02,,青森山田中学・高校前,,40.805616,140.749138,697_02,,0,,
699_01,,虹ケ丘一丁目,,40.812025,140.792806,699_01,,0,,
699_02,,虹ケ丘一丁目,,40.8117333333333,140.792823142857,699_02,,0,,
701_01,,しあわせプラザ前,,40.829095,140.751117,701_01,,0,,
701_02,,しあわせプラザ前,,40.829096,140.751188,701_02,,0,,
702_01,,牛館屯所前,,40.779906,140.749614,702_01,,0,,
702_02,,牛館屯所前,,40.779855,140.749657,702_02,,0,,
703_02,,牛館,,40.779938,140.752167,703_02,,0,,
708_01,,緑ヶ丘団地入口,,40.826101,140.671752,708_01,,0,,
708_02,,緑ヶ丘団地入口,,40.826227,140.671865,708_02,,0,,
709_01,,緑ヶ丘団地公園,,40.822663,140.67253,709_01,,0,,
709_02,,緑ヶ丘団地公園,,40.823079,140.672278,709_02,,0,,
710_01,,緑ヶ丘団地,,40.820479,140.67286,710_01,,0,,
710_02,,緑ヶ丘団地,,40.820597,140.672718,710_02,,0,,
714_01,,モヤ高原,,40.743014,140.78566,714_01,,0,,
714_02,,モヤ高原,,40.742801,140.78558,714_02,,0,,
715_01,,浅虫温泉森林公園前,,40.900689,140.863932,715_01,,0,,
715_02,,浅虫温泉森林公園前,,40.900728,140.863843,715_02,,0,,
719_01,,学校教育センター前,,40.788722,140.773624,719_01,,0,,
719_02,,学校教育センター前,,40.788757,140.77362,719_02,,0,,
720_01,,モヤヒルズ,,40.738131,140.793151,720_01,,0,,
720_02,,モヤヒルズ,,40.738089,140.793093,720_02,,0,,
721_01,,浜館四丁目,,40.81042,140.789725,721_01,,0,,
721_02,,浜館四丁目,,40.810239,140.789623,721_02,,0,,
725_01,,青葉台団地入口,,40.830779,140.661728,725_01,,0,,
725_02,,青葉台団地入口,,40.831077,140.661672,725_02,,0,,
726_01,,東部営業所,,40.845486,140.818679,726_01,,0,,
726_03,,東部営業所,,40.845309,140.818637,726_03,,0,,
726_04,,東部営業所,,40.845881,140.818672,726_04,,0,,
727_01,,西部工業団地入口,,40.807396,140.68851,727_01,,0,,
727_02,,西部工業団地入口,,40.807384,140.687644,727_02,,0,,
728_02,,西部工業団地,,40.805124,140.688979,728_02,,0,,
729_01,,第二養護学校前,,40.807561,140.8003,729_01,,0,,
729_02,,第二養護学校前,,40.807309,140.800745,729_02,,0,,
732_01,,奥野二丁目,,40.815789,140.762971,732_01,,0,,
732_02,,奥野二丁目,,40.815661,140.763094,732_02,,0,,
734_01,,シーナシーナ青森前,,40.800137,140.749119,734_01,,0,,
734_02,,シーナシーナ青森前,,40.79993,140.749114,734_02,,0,,
735_01,,大野小学校通り,,40.802564,140.746214,735_01,,0,,
735_02,,大野小学校通り,,40.80243,140.746053,735_02,,0,,
753_01,,中央二丁目南,,40.818206,140.74487,753_01,,0,,
754_01,,ハローワーク青森,,40.818201,140.747344,754_01,,0,,
755_01,,アピオあおもり前,,40.817003,140.748143,755_01,,0,,
756_01,,県民福祉プラザ前,,40.816542,140.750313,756_01,,0,,
757_01,,大野若宮,,40.801101,140.74044,757_01,,0,,
757_02,,大野若宮,,40.801936,140.740232,757_02,,0,,
758_01,,仙寿鶴亀温泉前,,40.798528,140.706474,758_01,,0,,
758_02,,仙寿鶴亀温泉前,,40.799164,140.706723,758_02,,0,,
764_01,,幸畑小学校前,,40.787501,140.784615,764_01,,0,,
764_02,,幸畑小学校前,,40.787369,140.784349,764_02,,0,,
765_01,,市民病院通り,,40.817325,140.755666,765_01,,0,,
765_02,,市民病院通り,,40.816305,140.755913,765_02,,0,,
767_01,,平新田児童館前,,40.832607,140.811916,767_01,,0,,
767_02,,平新田児童館前,,40.831973,140.812797,767_02,,0,,
768_01,,平新田森越,,40.830593,140.814251,768_01,,0,,
768_02,,平新田森越,,40.830648,140.814034,768_02,,0,,
789_01,,八甲通り,,40.825835,140.739849,789_01,,0,,
790_01,,西中学校入口,,40.809921,140.720767,790_01,,0,,
790_02,,西中学校入口,,40.809811,140.720456,790_02,,0,,
806_01,,台徳寺前,,40.758039,140.774801,806_01,,0,,
806_02,,台徳寺前,,40.757944,140.774621,806_02,,0,,
807_01,,青森公立大学前,,40.753748,140.775301952381,807_01,,0,,
807_02,,青森公立大学前,,40.753969,140.775205,807_02,,0,,
808_01,,東跨線橋,,40.828282,140.808555,808_01,,0,,
808_02,,東跨線橋,,40.828499,140.808678,808_02,,0,,
809_01,,八幡林,,40.835568,140.822201,809_01,,0,,
809_02,,八幡林,,40.835766,140.822061,809_02,,0,,
819_01,,県立美術館前,,40.808212,140.701455,819_01,,0,,
819_02,,県立美術館前,,40.808324,140.701342,819_02,,0,,
824_01,,三内西小学校前,,40.817257,140.707915,824_01,,0,,
824_02,,三内西小学校前,,40.817527,140.708029,824_02,,0,,
825_01,,丸山市民館前,,40.813737,140.703494,825_01,,0,,
825_02,,丸山市民館前,,40.814106,140.703709,825_02,,0,,
826_01,,ダイハツ石江店前,,40.824647,140.706104,826_01,,0,,
826_02,,ダイハツ石江店前,,40.823771,140.706434,826_02,,0,,
828_01,,西近野,,40.810623,140.703679,828_01,,0,,
828_02,,西近野,,40.810978,140.703389,828_02,,0,,
829_01,,桜川七丁目,,40.811821,140.771582,829_01,,0,,
829_02,,桜川七丁目,,40.811652,140.771491,829_02,,0,,
830_01,,新青森駅南口,,40.827037,140.693733428571,830_01,,0,,
830_02,,新青森駅南口,,40.826765,140.693721,830_02,,0,,
831_01,,新青森駅東口,,40.828178,140.694752,831_01,,0,,
832_01,,工業高校前,,40.842558,140.820462,832_01,,0,,
832_02,,工業高校前,,40.84338,140.819789,832_02,,0,,
832_03,,工業高校前,,40.843672,140.820777428571,832_03,,0,,
832_04,,工業高校前,,40.8435663606629,140.820897817612,832_04,,0,,
833_03,,自治研修所前,,40.831489,140.791047,833_03,,0,,
833_04,,自治研修所前,,40.831897,140.790792,833_04,,0,,
835_01,,岡部,,40.82967,140.702501,835_01,,0,,
835_02,,岡部,,40.829433,140.702316,835_02,,0,,
836_01,,前田通り,,40.798846,140.739284,836_01,,0,,
836_02,,前田通り,,40.798757,140.739469,836_02,,0,,
837_01,,筒井駅前,,40.805845,140.770175,837_01,,0,,
837_02,,筒井駅前,,40.805925,140.769663,837_02,,0,,
838_01,,栄山,,40.796345,140.711745,838_01,,0,,
838_02,,栄山,,40.796485,140.711617,838_02,,0,,
839_01,,桜峰,,40.765235,140.771658,839_01,,0,,
839_02,,桜峰,,40.765591,140.771462,839_02,,0,,
840_01,,上六枚橋,,40.929871,140.665201,840_01,,0,,
840_02,,上六枚橋,,40.929888,140.66529,840_02,,0,,
841_01,,三内,,40.82048,140.708333,841_01,,0,,
841_02,,三内,,40.820454,140.708108,841_02,,0,,
842_01,,滝内福祉館前,,40.821575,140.708312,842_01,,0,,
842_02,,滝内福祉館前,,40.821356,140.708154,842_02,,0,,
843_01,,商業高校前,,40.810498,140.796859,843_01,,0,,
843_02,,商業高校前,,40.81077,140.796489,843_02,,0,,
843_03,,商業高校前,,40.810982,140.798208,843_03,,0,,
843_04,,商業高校前,,40.810937,140.798061,843_04,,0,,
844_01,,商業高校通り,,40.806646,140.793027,844_01,,0,,
844_02,,商業高校通り,,40.806179,140.792989,844_02,,0,,
855_01,,八重田浄化センター前,,40.833341,140.792285,855_01,,0,,
855_02,,八重田浄化センター前,,40.833954,140.793264,855_02,,0,,
860_01,,石江高間,,40.8321514472756,140.690016979327,860_01,,0,,
860_02,,石江高間,,40.8320824886787,140.690266036206,860_02,,0,,
861_01,,石神,,40.8317428420621,140.695585128838,861_01,,0,,
861_02,,石神,,40.831599091851,140.69532522672,861_02,,0,,
862_01,,新青森駅西口通り,,40.8293227255468,140.691846557381,862_01,,0,,
862_02,,新青森駅西口通り,,40.8294942773875,140.692046324576,862_02,,0,,
863_01,,西大野,,40.8025026461059,140.724633685935,863_01,,0,,
864_01,,大野中央公園前,,40.8005685572458,140.726946802346,864_01,,0,,
867_01,,安田,,40.8048426646842,140.708183696397,867_01,,0,,
867_02,,安田,,40.8053407542892,140.708470577349,867_02,,0,,
263_01,,総合体育館前,,40.8134046409522,140.746321678821,263_01,,0,,
263_02,,総合体育館前,,40.8133056194495,140.7461634275,263_02,,0,,
